{
"type": "FeatureCollection",
"name": "Carolina-Big-Cities",
"crs": { "type": "name", "properties": { "name": "urn:ogc:def:crs:OGC:1.3:CRS84" } },
"features": [
{ "type": "Feature", "properties": { "Name": "Asheville", "State": "NC", "Longitude": -82.5515, "Latitude": 35.5951, "Importance": 1, "WNC": "Yes", "Blank": null }, "geometry": { "type": "Point", "coordinates": [ -82.5515, 35.5951 ] } },
{ "type": "Feature", "properties": { "Name": "Charlotte", "State": "NC", "Longitude": -80.8431, "Latitude": 35.2271, "Importance": 1, "WNC": "No", "Blank": null }, "geometry": { "type": "Point", "coordinates": [ -80.8431, 35.2271 ] } },
{ "type": "Feature", "properties": { "Name": "Raleigh", "State": "NC", "Longitude": -78.6382, "Latitude": 35.7796, "Importance": 1, "WNC": "No", "Blank": null }, "geometry": { "type": "Point", "coordinates": [ -78.6382, 35.7796 ] } },
{ "type": "Feature", "properties": { "Name": "Boone", "State": "NC", "Longitude": -81.6746, "Latitude": 36.2168, "Importance": 1, "WNC": "Yes", "Blank": null }, "geometry": { "type": "Point", "coordinates": [ -81.6746, 36.2168 ] } },
{ "type": "Feature", "properties": { "Name": "Wilmington", "State": "NC", "Longitude": -77.8868, "Latitude": 34.2104, "Importance": 1, "WNC": "No", "Blank": null }, "geometry": { "type": "Point", "coordinates": [ -77.8868, 34.2104 ] } },
{ "type": "Feature", "properties": { "Name": "Greenville", "State": "SC", "Longitude": -82.394, "Latitude": 34.8526, "Importance": 1, "WNC": "No", "Blank": null }, "geometry": { "type": "Point", "coordinates": [ -82.394, 34.8526 ] } },
{ "type": "Feature", "properties": { "Name": "Columbia", "State": "SC", "Longitude": -81.0348, "Latitude": 34.0007, "Importance": 1, "WNC": "No", "Blank": null }, "geometry": { "type": "Point", "coordinates": [ -81.0348, 34.0007 ] } },
{ "type": "Feature", "properties": { "Name": "Charleston", "State": "SC", "Longitude": -79.9311, "Latitude": 32.7765, "Importance": 1, "WNC": "No", "Blank": null }, "geometry": { "type": "Point", "coordinates": [ -79.9311, 32.7765 ] } }
]
}
